     3.03           OBSERVATION DATA    M                   RINEX VERSION / TYPE
sbf2rin-13.8.0                          20230612 091336 UTC PGM / RUN BY / DATE 
SEPT                                                        MARKER NAME         
Unknown                                                     MARKER NUMBER       
Unknown             Unknown                                 OBSERVER / AGENCY   
3047871             SEPT ASTERX4        4.10.0              REC # / TYPE / VERS 
Unknown             Unknown                                 ANT # / TYPE        
  4198172.1803   151325.1859  4783373.8774                  APPROX POSITION XYZ 
        0.0000        0.0000        0.0000                  ANTENNA: DELTA H/E/N
G   12 C1C L1C D1C S1C C2W L2W D2W S2W C2L L2L D2L S2L      SYS / # / OBS TYPES 
E    8 C1C L1C D1C S1C C7Q L7Q D7Q S7Q                      SYS / # / OBS TYPES 
S    4 C1C L1C D1C S1C                                      SYS / # / OBS TYPES 
R    8 C1C L1C D1C S1C C2C L2C D2C S2C                      SYS / # / OBS TYPES 
C    8 C2I L2I D2I S2I C7I L7I D7I S7I                      SYS / # / OBS TYPES 
SEPTENTRIO RECEIVERS OUTPUT ALIGNED CARRIER PHASES.         COMMENT             
NO FURTHER PHASE SHIFT APPLIED IN THE RINEX ENCODER.        COMMENT             
G L1C                                                       SYS / PHASE SHIFT   
G L2W                                                       SYS / PHASE SHIFT   
G L2L  0.00000                                              SYS / PHASE SHIFT   
E L1C  0.00000                                              SYS / PHASE SHIFT   
E L7Q  0.00000                                              SYS / PHASE SHIFT   
S L1C                                                       SYS / PHASE SHIFT   
R L1C                                                       SYS / PHASE SHIFT   
R L2C                                                       SYS / PHASE SHIFT   
C L2I                                                       SYS / PHASE SHIFT   
C L7I                                                       SYS / PHASE SHIFT   
     1.000                                                  INTERVAL            
  2023     6     9    15    28   52.0000000     GPS         TIME OF FIRST OBS   
  2023     6     9    15    37    1.0000000     GPS         TIME OF LAST OBS    
    41                                                      # OF SATELLITES     
 C1C    0.000 C2C    0.000                                  GLONASS COD/PHS/BIS 
DBHZ                                                        SIGNAL STRENGTH UNIT
  9 R01  1 R07  5 R08  6 R15  0 R16 -1 R17  4 R22 -3 R23  3 GLONASS SLOT / FRQ #
    R24  2                                                  GLONASS SLOT / FRQ #
                                                            END OF HEADER       
> 2023 06 09 15 28 52.0000000  0 36
C06  39172045.814 5 203979103.35105      4012.612 5        35.563    39172038.411 5                      3102.288 5        33.156
C09  39034892.915 6 203264927.51406      4591.780 6        38.094    39034897.974 6                      3551.801 6        37.344
C16                                                                  39320364.287 5                      2969.345 5        32.094
C20  23713677.532 8 123483348.82708      6435.139 8        48.125
C27  24315231.750 6 126615784.54306       440.284 6        41.750
C29  23357604.976 8 121629184.45508      5885.114 8        48.406
C30  21676706.037 8 112876291.66708      2711.265 8        51.969
C32  21705732.966 8 113027449.58008      3619.208 8        51.563
E02  27299503.728 5 143459920.66705      2403.236 5        34.406    27299514.801 5 109923838.37705      1841.706 5        35.063
E04  24297620.803 7 127684864.80707      5411.381 7        44.594    24297628.165 7  97836479.25007      4146.522 7        43.406
E10  23589833.223 7 123965406.57907      2777.431 7        47.563    23589839.977 7  94986510.42807      2128.102 7        44.125
E11  22627217.364 7 118906829.34407      4199.003 7        45.031    22627221.162 7  91110443.98607      3217.264 7        43.688
E12  24910619.045 6 130906176.38206      1698.304 6        36.250    24910624.350 5 100304755.29105      1300.809 5        35.969
E19  25737616.260 6 135252086.93706      2230.828 6        38.656    25737622.375 5 103634738.40905      1709.275 5        35.094
E30  28509365.068 5 149817740.91305      4686.394 5        33.938    28509347.139 4                      3590.967 4        26.719
E36  26193056.075 7 137645436.72207      6016.290 7        44.531    26193065.699 7 105468630.28607      4610.032 7        42.219
G01  20061839.649 8 105425678.28308      2595.593 8        49.656    20061845.404 8  82149899.88708      2022.540 8        49.438    20061845.641 7  82149903.89607      2022.585 7        45.031
G02  21224795.891 7 111537055.53207      2226.717 7        44.813    21224798.082 5  86912000.58805      1735.112 5        31.938
G03  20398014.210 8 107192293.52908      4779.558 8        49.875    20398020.345 8  83526483.95308      3724.331 8        52.375    20398020.890 7  83526487.94407      3724.337 7        46.313
G04  23698429.631 5 124536091.20705      7301.746 5        34.750    23698439.411 1  97041143.26701      5689.607 1        10.656    23698437.783 5                      5689.058 5        32.156
G14                                                                                                                                  24430786.475 4                       723.703 4        26.594
G17  22009718.349 7 115661848.56207      5441.503 7        46.781    22009721.680 5  90126133.85705      4240.136 5        34.375    22009721.595 6  90126131.83006      4240.166 6        41.188
G19  23327931.249 6 122589130.50906      6893.858 6        41.906    23327933.570 4  95523994.46104      5371.831 4        25.281
G21  21821431.248 7 114672391.13907      1632.418 7        42.250    21821433.649 4  89355121.88404      1272.001 4        27.563
G32  24030339.534 6 126280317.21206       784.244 6        36.469    24030346.773 4  98400259.31604       611.097 4        25.906    24030348.173 6  98400445.25706       612.059 6        36.313
R01  20533193.176 7 109761677.30807      6827.835 7        46.469    20533202.439 6  85370245.08606      5310.532 6        41.000
R07  22125245.996 6                      -187.775 6        36.156    22125242.807 6  92118570.14906      -146.238 6        38.063
R08  19328481.083 8 103503139.84708      2757.853 8        50.844    19328486.601 7  80502464.07607      2145.222 7        47.125
R15  23737774.361 6 126847638.50906      1823.209 6        38.594    23737789.481 7  98659409.08107      1417.596 7        42.313
R16  23794241.697 6 127104605.53406      4833.087 6        40.125    23794259.664 5  98859160.53205      3757.610 5        34.906
R17  24307839.136 3                      7782.628 3        23.531    24307841.070 6 101170345.34006      6053.511 6        36.844
R22  23168522.884 6                      -251.198 6        36.563    23168537.101 4                      -195.470 4        27.281
R23  19372947.624 7 103632202.15907      2398.596 7        46.313
R24  20120420.041 8 107592928.23208      6225.511 8        50.969    20120427.150 7  83683418.64607      4841.834 7        46.625
S23  38778304.562 6 203781351.11806      3565.660 6        37.125
S36  38187993.948 7 200679260.55707      3569.058 7        45.375
> 2023 06 09 15 28 53.0000000  0 35
C06  39171274.526 6 203975091.32906      4011.559 6        36.281    39171268.389 5                      3103.094 5        31.844
C09  39034011.294 5 203260335.63805      4592.552 5        32.750    39034017.793 5                      3548.410 5        31.375
C20  23712442.050 8 123476914.23808      6433.717 8        48.406
C27  24315147.487 7 126615344.84907       439.104 7        46.563
C29  23356475.059 8 121623299.91808      5883.586 8        48.531
C30  21676185.142 8 112873580.73208      2710.142 8        51.531
C32  21705038.170 8 113023830.91008      3617.884 8        52.719
E02  27299046.182 5 143457517.54305      2402.115 5        33.469    27299057.627 5 109921996.92305      1840.769 5        35.656
E04  24296591.158 7 127679453.64307      5410.176 7        46.938    24296598.516 7  97832333.03407      4145.640 7        46.031
E10  23589304.834 8 123962629.75908      2776.040 8        48.156    23589311.427 7  94984382.71007      2127.310 7        45.031
E11  22626418.214 7 118902630.65907      4198.074 7        44.469    22626421.967 7  91107226.81107      3216.813 7        43.031
E12  24910296.332 6 130904479.25106      1696.250 6        39.688    24910301.579 6 100303454.85006      1299.899 6        38.031
E19  25737191.792 5 135249856.62405      2228.828 5        35.063    25737197.728 4 103633029.72104      1706.678 4        28.938
E30  28508471.799 5 149813054.52705      4685.590 5        33.313    28508454.782 4                      3590.436 4        24.156
E36  26191911.397 7 137639420.82007      6015.378 7        44.719    26191920.865 6 105464020.73206      4609.112 6        41.125
G01  20061345.888 8 105423083.51708      2593.884 8        50.094    20061351.630 8  82147877.99208      2021.208 8        49.938    20061351.943 7  82147881.98307      2021.372 7        45.156
G02  21224372.603 7 111534829.56707      2225.146 7        46.969    21224374.508 5  86910266.06805      1733.871 5        32.125
G03  20397104.682 8 107187514.48208      4778.229 8        50.063    20397110.915 8  83522760.01708      3723.286 8        52.313    20397111.568 7  83522764.00407      3723.357 7        46.375
G04  23697040.343 5 124528790.23505      7300.096 5        33.469    23697050.019 1  97035454.26501      5688.386 1        10.281    23697048.302 5                      5688.761 5        31.500
G14                                                                                                                                  24430610.239 4                       723.440 4        26.031
G17  22008682.985 7 115656407.56107      5440.076 7        46.844    22008686.289 5  90121894.10805      4239.025 5        34.344    22008686.276 6  90121892.09506      4239.119 6        41.313
G19  23326619.226 6 122582237.13506      6892.826 6        41.906    23326621.810 4  95518623.00404      5371.024 4        25.313
G21  21821120.855 7 114670759.22607      1631.142 7        45.281    21821123.068 4  89353850.25704      1271.029 4        27.188
G32  24030189.793 6 126279532.50306       783.798 6        36.875    24030197.389 4  98399647.85304       610.751 4        27.531    24030198.941 6  98399833.80506       610.688 6        36.781
R01  20531915.991 7 109754849.67907      6826.814 7        46.750    20531925.192 6  85364934.72706      5309.871 6        41.406
R07  22125278.738 6 118438376.01916      -188.650 6        37.000    22125277.945 6  92118716.58006      -146.862 6        40.656
R08  19327966.211 8 103500382.66908      2756.115 8        50.594    19327971.493 7  80500319.61307      2143.709 7        47.094
R15  23737433.798 6 126845816.23806      1821.333 6        37.063    23737448.591 7  98657991.74007      1416.594 7        42.531
R16  23793337.503 6 127099773.96606      4830.628 6        40.281    23793354.048 5  98855402.62205      3757.447 5        34.719
R17  24306383.337 4                      7783.420 4        29.875    24306387.354 6 101164291.55906      6053.731 6        37.438
R22  23168570.457 7 123675408.93917      -255.303 7        43.406    23168583.910 6                      -198.113 6        38.125
R23  19372499.425 8 103629804.35508      2396.912 8        48.188
R24  20119255.850 8 107586703.26108      6224.234 8        51.031    20119263.222 7  83678576.98307      4840.829 7        46.938
S23  38777628.069 7 203777785.69207      3564.964 7        43.563
S36  38187317.208 7 200675691.38507      3568.659 7        44.563
> 2023 06 09 15 28 54.0000000  0 37
C06  39170503.967 5 203971079.79705      4011.601 5        31.688    39170497.673 4                      3102.435 4        28.781
C09  39033129.602 6                      4591.052 6        38.500    39033136.620 6                      3549.907 6        38.625
C16  39318882.600 4                      3839.079 4        25.250    39318893.642 4                      2968.943 4        26.188
C20  23711206.545 8 123470480.03708      6433.896 8        48.375
C27  24315063.224 7 126614905.56207       439.033 7        47.156
C29  23355345.219 8 121617415.86708      5883.691 8        48.563
C30  21675664.578 8 112870870.49308      2709.864 8        51.438
C32  21704343.414 8 113020212.90008      3617.591 8        51.969
E02  27298589.437 5 143455115.04205      2401.980 5        34.406    27298600.426 5 109920156.12805      1840.314 5        35.406
E04  24295561.576 7 127674042.99907      5410.379 7        47.563    24295568.889 7  97828187.22907      4145.711 7        46.219
E10  23588776.619 8 123959853.43308      2776.187 8        48.969    23588783.172 7  94982255.43307      2126.892 7        47.156
E11  22625619.349 7 118898432.43507      4197.820 7        45.031    22625623.005 7  91104009.99707      3216.620 7        43.281
E12  24909972.900 7 130902782.75107      1696.444 7        42.781    24909978.572 6 100302154.99406      1299.400 6        41.750
E19  25736767.757 6 135247626.81806      2229.293 6        36.375    25736774.032 5 103631320.97605      1708.012 5        33.688
E30  28507578.471 5 149808368.79005      4685.438 5        33.813    28507562.232 4                      3589.531 4        26.688
E36  26190766.604 7 137633405.17407      6015.530 7        43.969    26190776.304 7 105459411.31407      4609.367 7        42.250
G01  20060852.293 8 105420489.43408      2593.745 8        50.250    20060857.980 8  82145856.63408      2021.089 8        50.406    20060858.508 7  82145860.65407      2020.916 7        46.469
G02  21223949.324 8 111532604.22208      2225.177 8        48.688    21223951.027 5  86908532.02305      1733.910 5        34.125
G03  20396195.436 8 107182736.08908      4778.055 8        50.250    20396201.620 8  83519036.59008      3723.162 8        52.313    20396202.273 7  83519040.58207      3723.224 7        46.656
G04  23695651.609 5 124521489.55105      7300.296 5        35.719    23695660.771 1  97029765.39401      5688.542 1         8.844    23695658.410 5                      5688.348 5        31.688
G14                                                                                                                                  24430436.253 4                       723.438 4        25.125
G17  22007647.773 7 115650967.22407      5439.917 7        47.125    22007651.010 5  90117654.88305      4238.891 5        34.281    22007651.221 6  90117652.89406      4238.878 6        41.438
G19  23325307.122 6 122575344.34106      6892.566 6        41.344    23325310.167 4  95513252.01304      5370.834 4        25.219
G21  21820810.421 8 114669127.89408      1631.132 8        48.156    21820812.648 4  89352579.07504      1271.020 4        29.563
G28  24351105.850 4                      5403.935 4        28.063                                                                    24351105.805 4                      4210.282 4        28.156
G32  24030039.756 5                       781.924 5        30.125                                                                    24030050.287 5  98399222.98205       610.732 5        31.906
R01  20530638.860 7 109748022.82507      6826.462 7        46.469    20530648.199 6  85359624.95606      5309.319 6        41.500
R07  22125312.038 5 118438565.05505      -189.351 5        34.188    22125313.115 5  92118863.61205      -147.837 5        33.219
R08  19327451.465 8 103497626.51208      2755.537 8        50.656    19327456.831 7  80498175.94407      2143.342 7        47.594
R15  23737093.288 6 126843994.81506      1821.192 6        37.063    23737107.840 7  98656575.08907      1416.244 7        42.656
R16  23792433.051 6 127094943.32506      4830.229 6        40.781    23792448.196 5  98851645.34105      3756.391 5        35.313
R17  24304927.605 4                      7782.789 4        29.656    24304932.570 6 101158237.98106      6053.665 6        37.469
R22  23168617.919 7 123675663.18907      -254.854 7        42.344    23168631.064 6                      -197.987 6        39.125
R23  19372051.221 8 103627407.45708      2396.444 8        48.281
R24  20118091.766 8 107580478.97108      6223.875 8        50.938    20118098.973 7  83673735.86207      4840.917 7        46.406
S23  38776950.868 7 203774220.48407      3565.027 7        43.156
S36  38186637.043 7 200672122.42907      3568.888 7        44.250
> 2023 06 09 15 28 55.0000000  0 37
C06  39169732.290 6 203967068.67406      4009.867 6        37.094    39169727.387 5                      3100.678 5        35.281
C09  39032247.990 6                      4589.431 6        39.438    39032255.724 6                      3548.710 6        39.000
C16  39318143.812 4                      3837.585 4        28.063    39318157.971 5                      2968.058 5        30.875
C20  23709971.335 8 123464046.40908      6432.265 8        48.656
C27  24314979.144 7 126614466.75107       437.423 7        47.375
C29  23354215.401 8 121611532.40408      5882.166 8        48.500
C30  21675144.215 8 112868161.04108      2708.065 8        51.406
C32  21703648.680 8 113016595.63408      3615.812 8        51.844
E02  27298132.590 5 143452713.19705      2400.283 5        33.719    27298143.055 5 109918315.75505      1839.217 5        34.906
E04  24294532.137 7 127668633.04407      5408.509 7        47.781    24294539.365 7  97824041.95307      4144.222 7        46.438
E10  23588248.265 8 123957077.65708      2774.417 8        48.969    23588254.939 7  94980128.52707      2125.829 7        46.688
E11  22624820.624 7 118894234.75807      4196.277 7        45.063    22624824.297 7  91100793.60207      3215.250 7        43.375
E12  24909649.883 7 130901086.76807      1694.554 7        43.063    24909655.685 6 100300855.43606      1298.499 6        41.469
E19  25736343.529 6 135245397.74006      2227.667 6        38.188    25736350.002 5 103629613.03005      1706.843 5        35.344
E30  28506684.746 5 149803683.74205      4683.462 5        34.750    28506670.966 4                      3589.734 4        28.063
E36  26189621.895 7 137627389.87307      6014.133 7        44.000    26189631.712 7 105454802.20407      4608.080 7        42.219
G01  20060358.818 8 105417896.10108      2591.871 8        50.250    20060364.483 8  82143835.85808      2019.642 8        50.781    20060364.993 7  82143839.86307      2019.542 7        46.250
G02  21223526.067 8 111530379.50108      2223.335 8        48.906    21223527.672 5  86906798.47005      1732.472 5        35.438
G03  20395286.404 8 107177958.48008      4776.163 8        50.125    20395292.481 8  83515313.77608      3721.687 8        52.375    20395293.142 7  83515317.77307      3721.635 7        46.781
G04  23694262.361 5 124514189.30005      7298.731 5        35.125    23694271.648 1  97024076.91401      5687.302 1         8.563    23694269.716 5                      5688.427 5        31.156
G14                                                                                                                                  24430259.763 4                       722.914 4        26.406
G17  22006612.785 7 115645527.67107      5438.085 7        47.688    22006615.866 5  90113416.27005      4237.480 5        34.375    22006616.161 6  90113414.25906      4237.458 6        41.250
G19  23323995.318 6 122568452.14006      6890.946 6        40.844    23323998.577 4  95507881.46904      5369.562 4        25.250
G21  21820499.916 7 114667497.11407      1629.383 7        47.844    21820502.339 5  89351308.33005      1269.657 5        31.250
G28  24350077.538 4                      5404.156 4        26.844
G32  24029890.798 5                       784.328 5        35.063                                                                    24029900.863 5  98398612.40505       609.093 5        32.094
R01  20529361.827 7 109741196.79807      6824.511 7        46.813    20529371.394 6  85354315.83406      5307.869 6        41.281
R07  22125346.733 6 118438754.32106      -190.881 6        37.031    22125348.020 5  92119010.79405      -148.375 5        35.406
R08  19326936.982 8 103494871.41908      2753.408 8        50.563    19326942.228 7  80496033.10207      2141.568 7        47.469
R15  23736753.655 6 126842174.38806      1818.832 6        38.938    23736766.968 7  98655159.19207      1414.686 7        42.188
R16  23791528.974 6 127090113.66206      4828.242 6        38.281    23791542.366 5  98847888.93305      3755.369 5        33.844
R17  24303472.190 4                      7782.548 4        27.781    24303477.593 6 101152184.50006      6052.428 6        38.250
R22  23168665.045 7 123675918.02107      -255.986 7        42.344    23168678.306 6  96192418.09616      -199.230 6        39.594
R23  19371602.999 8 103625011.49708      2394.456 8        48.250
R24  20116927.870 8 107574255.40708      6222.125 8        51.000    20116935.153 7  83668895.31907      4839.463 7        46.625
S23  38776270.958 7 203770655.54407      3563.650 7        43.031
S36  38185957.012 7 200668553.70507      3567.701 7        44.375
> 2023 06 09 15 28 56.0000000  0 37
C06  39168959.992 6 203963058.48906      4010.496 6        37.219    39168957.637 5                      3100.843 5        35.438
C09  39031366.432 6                      4589.892 6        39.250    39031374.452 6                      3549.177 6        39.000
C16  39317405.636 3                      3837.558 3        21.000    39317421.566 5                      2967.400 5        30.719
C20  23708736.174 8 123457613.80808      6432.696 8        48.875
C27  24314895.010 7 126614028.91407       438.080 7        47.313
C29  23353085.811 8 121605650.03808      5882.449 8        48.656
C30  21674624.107 8 112865452.85408      2708.177 8        51.406
C32  21702954.282 8 113012979.64208      3615.997 8        51.969
E02  27297675.894 5 143450312.58505      2400.591 5        34.750    27297686.230 5 109916476.34705      1839.436 5        35.406
E04  24293502.796 7 127663224.24407      5408.857 7        47.938    24293510.105 7  97819897.55107      4144.439 7        46.594
E10  23587720.091 8 123954302.95108      2774.830 8        49.063    23587726.854 7  94978002.44607      2126.154 7        46.563
E11  22624022.090 7 118890038.13407      4196.839 7        45.250    22624025.705 7  91097577.99307      3215.765 7        43.250
E12  24909327.180 7 130899391.76207      1695.120 7        43.250    24909332.999 6 100299556.66506      1298.802 6        41.594
E19  25735919.749 6 135243169.86006      2227.916 6        38.281    25735925.909 5 103627905.94705      1707.014 5        33.719
E30                                                                  28505779.441 4                      3588.424 4        27.656
E36  26188477.276 7 137621375.41707      6014.684 7        44.031    26188487.165 7 105450193.71607      4608.650 7        42.344
G01  20059865.580 8 105415304.01208      2592.163 8        50.250    20059871.214 8  82141816.04808      2019.867 8        51.031    20059871.692 7  82141820.05607      2019.871 7        46.031
G02  21223103.078 8 111528155.93308      2223.682 8        48.844    21223104.545 6  86905065.81606      1732.741 6        36.438
G03  20394377.502 8 107173182.11708      4776.324 8        49.969    20394383.574 8  83511591.93408      3721.810 8        52.375    20394384.196 7  83511595.93907      3721.782 7        46.531
G04  23692873.748 6 124506889.95006      7299.500 6        36.438    23692882.570 1  97018389.11401      5688.003 1         8.844    23692880.343 5                      5687.630 5        32.219
G14                                                                                                                                  24430083.666 4                       721.385 4        25.656
G17  22005578.132 7 115640089.36407      5438.316 7        47.844    22005580.967 5  90109178.62305      4237.652 5        34.469    22005581.481 6  90109176.62506      4237.721 6        41.438
G19  23322683.898 6 122561561.08506      6891.153 6        40.781    23322687.314 4  95502511.80804      5369.726 4        25.313
G21  21820189.590 8 114665867.36308      1629.826 8        48.281    21820192.210 5  89350038.38805      1270.002 5        32.406
G28  24349046.851 4                      5402.619 4        25.906
G32  24029742.492 5 126277145.75915       782.391 5        34.656    24029749.601 4  98397806.89914       609.665 4        28.156    24029752.038 5  98398002.84505       609.551 5        32.844
R01  20528085.219 7 109734372.15607      6824.647 7        46.625    20528094.572 6  85349007.77006      5308.134 6        41.125
R07  22125381.084 6 118438944.81406      -190.606 6        37.031    22125383.954 6  92119158.91806      -148.015 6        37.219
R08  19326422.938 8 103492117.93008      2753.359 8        50.594    19326428.179 7  80493891.50207      2141.460 7        47.625
R15  23736413.485 6 126840355.46706      1818.840 6        39.438    23736426.414 7  98653744.46007      1414.653 7        42.438
R16  23790624.990 7 127085285.77307      4827.859 7        42.500    23790637.296 6  98844133.89506      3754.817 6        38.063
R17                                                                  24302023.140 6 101146131.61006      6052.940 6        38.594
R22  23168712.722 7 123676173.84807      -255.602 7        42.375    23168726.010 6  96192617.09306      -198.959 6        39.781
R23  19371155.192 8 103622617.02808      2394.368 8        48.125
R24  20115764.228 8 107568033.07908      6222.352 8        51.469    20115771.440 7  83664055.73707      4839.588 7        46.719
S23  38775592.573 7 203767091.33007      3564.500 7        43.469
S36  38185277.223 7 200664985.76907      3568.205 7        44.000
> 2023 06 09 15 28 57.0000000  0 37
C05  40341020.494 5 210066279.07015      3513.767 5        34.438    40341029.900 6 162436609.91216      2716.982 6        36.031
C06  39168187.984 6 203959048.95106      4009.406 6        37.656    39168187.986 5 157714059.34515      3100.190 5        34.906
C09  39030484.995 6                      4588.920 6        39.094    39030493.238 6 157159602.61716      3548.403 6        39.344
C16  39316671.539 4                      3837.072 4        26.281    39316684.410 5                      2967.010 5        30.125
C20  23707501.130 8 123451181.88508      6431.542 8        48.719
C27  24314810.935 7 126613591.73807       436.877 7        47.156
C29  23351956.315 8 121599768.40408      5881.351 8        48.625
C30  21674104.187 8 112862745.57508      2706.902 8        51.406
C32  21702260.125 8 113009364.55408      3614.676 8        52.031
E02  27297219.323 5 143447912.84705      2399.366 5        34.094    27297229.740 5 109914637.55905      1838.579 5        35.625
E04  24292473.639 7 127657816.25607      5407.553 7        47.813    24292480.997 7  97815753.77007      4143.475 7        46.531
E10  23587192.189 8 123951528.94508      2773.685 8        49.156    23587199.010 7  94975876.90807      2125.245 7        46.625
E11  22623223.704 7 118885842.19007      4195.614 7        45.094    22623227.203 7  91094362.92907      3214.844 7        43.188
E12  24909004.632 7 130897697.41807      1694.056 7        43.063    24909010.452 6 100298258.39206      1298.055 6        41.625
E19  25735496.126 6 135240942.83006      2226.672 6        38.500    25735501.865 5 103626199.49505      1706.276 5        34.375
E30                                                                  28504888.551 4                      3587.481 4        28.156
E36  26187332.702 7 137615361.44107      6013.729 7        43.844    26187342.854 7 105445585.60107      4608.068 7        42.594
G01  20059372.579 8 105412712.84708      2590.802 8        50.531    20059378.110 8  82139796.95908      2018.811 8        51.313    20059378.544 7  82139800.95407      2018.761 7        46.219
G02  21222680.108 8 111525933.15508      2222.394 8        48.750    21222681.551 6  86903333.78006      1731.736 6        37.031
G03  20393468.721 8 107168406.65608      4775.075 8        49.969    20393474.842 8  83507870.79508      3720.842 8        52.375    20393475.169 7  83507874.78407      3720.885 7        46.563
G04  23691485.009 5 124499591.13505      7298.278 5        35.000    23691493.545 1  97012701.68201      5686.994 1         8.469    23691492.137 5                      5687.045 5        31.969
G14                                                                                                                                  24429908.302 4                       721.737 4        26.688
G17  22004543.425 7 115634651.96707      5437.029 7        47.250    22004546.260 5  90104941.69505      4236.648 5        34.500    22004546.600 6  90104939.69306      4236.542 6        41.219
G19  23321372.792 6 122554670.77406      6890.027 6        41.250    23321376.199 4  95497142.73404      5368.850 4        25.188
G21  21819879.519 8 114664238.30308      1628.808 8        48.281    21819882.210 5  89348768.98805      1269.201 5        33.344
G32  24029594.092 5 126276364.21105       781.424 5        33.375    24029600.888 4  98397197.89404       608.914 4        27.438    24029603.089 5  98397393.89005       608.752 5        34.219
R01  20526808.817 7 109727548.48707      6823.185 7        46.813    20526817.686 6  85343700.46806      5307.057 6        41.031
R07  22125416.244 6 118439136.02006      -191.555 6        37.063    22125419.893 6  92119307.61606      -148.997 6        37.844
R08  19325908.938 8 103489365.65008      2751.743 8        50.469    19325914.412 7  80491750.83507      2140.245 7        47.406
R15  23736074.192 6 126838537.70506      1817.193 6        39.813    23736085.864 7  98652330.64207      1413.472 7        42.406
R16  23789721.638 7 127080459.05307      4826.041 7        42.656    23789732.843 6  98840379.79506      3753.602 6        38.313
R17  24300558.968 5                      7781.720 5        30.813    24300569.165 6 101140078.98506      6052.562 6        39.531
R22  23168759.889 7 123676430.36307      -256.877 7        42.125    23168773.485 6  96192816.57006      -199.629 6        39.750
R23  19370707.659 8 103620223.65908      2392.851 8        48.406
R24  20114600.864 8 107561811.66908      6220.968 8        51.563    20114608.169 7  83659216.86507      4838.493 7        46.438
S23  38774912.354 7 203763527.58107      3563.626 7        43.094
S36  38184597.532 7 200661418.22407      3567.353 7        44.250
> 2023 06 09 15 28 58.0000000  0 37
C05  40340346.062 5 210062765.48605      3513.583 5        34.000    40340355.396 6 162433892.99406      2716.847 6        36.031
C06  39167416.048 6 203955039.92506      4008.845 6        37.219    39167418.179 5 157710959.31205      3100.013 5        35.313
C09  39029603.678 6                      4588.515 6        39.063    39029612.092 6 157156054.29506      3548.401 6        39.313
C16  39315935.868 4                      3836.215 4        29.094    39315948.310 5                      2966.638 5        30.406
C20  23706265.996 8 123444750.56508      6430.989 8        48.469
C27  24314727.020 7 126613155.08907       436.355 7        47.125
C29  23350826.984 8 121593887.41108      5880.728 8        48.656
C30  21673584.513 8 112860039.13808      2706.054 8        51.625
C32  21701566.085 8 113005750.28008      3613.875 8        52.031
E02  27296762.189 5 143445513.84605      2398.789 5        33.438    27296773.370 5 109912799.37705      1837.933 5        34.969
E04  24291444.598 7 127652408.99607      5406.860 7        47.781    24291451.938 7  97811610.54307      4142.999 7        46.531
E10  23586664.475 8 123948755.55708      2773.067 8        49.188    23586671.309 7  94973751.84607      2124.777 7        46.750
E11  22622425.457 7 118881646.86807      4195.108 7        45.031    22622428.813 7  91091148.33407      3214.365 7        43.125
E12  24908682.309 7 130896003.60407      1693.554 7        43.000    24908688.088 6 100296960.54006      1297.778 6        41.844
E19  25735072.582 6 135238716.55206      2225.837 6        38.563    25735078.254 5 103624493.64805      1705.640 5        34.188
E30                                                                  28503998.210 4                      3587.190 4        28.031
E36  26186188.329 7 137609347.87907      6013.297 7        44.344    26186198.557 7 105440977.82307      4607.693 7        42.563
G01  20058879.637 8 105410122.49208      2589.926 8        50.469    20058885.168 8  82137778.49908      2018.129 8        51.531    20058885.427 7  82137782.49407      2018.169 7        46.031
G02  21222257.284 8 111523711.08708      2221.715 8        48.813    21222258.710 6  86901602.29806      1731.209 6        37.563
G03  20392560.123 8 107163632.01708      4774.304 8        49.781    20392566.253 8  83504150.29708      3720.237 8        52.406    20392566.463 7  83504154.30007      3720.221 7        46.656
G04  23690095.600 5 124492292.81105      7298.145 5        34.594    23690104.637 1  97007014.67101      5686.868 1         8.938    23690103.032 5                      5686.573 5        31.750
G14                                                                                                                                  24429731.812 4                       720.944 4        28.406
G17  22003508.826 7 115629215.40907      5436.203 7        47.031    22003511.719 5  90100705.41805      4235.998 5        34.500    22003511.916 6  90100703.41506      4236.013 6        41.063
G19  23320061.779 6 122547781.14206      6889.429 6        40.844    23320065.200 4  95491774.19004      5368.383 4        24.969
G21  21819569.555 8 114662609.85808      1628.216 8        48.094    21819572.331 5  89347500.07005      1268.741 5        33.938
G32  24029445.227 5 126275583.41405       780.696 5        34.625    24029452.399 4  98396589.47504       608.336 4        26.938    24029453.991 5  98396785.47105       608.119 5        34.250
R01  20525532.670 7 109720725.70407      6822.329 7        46.563    20525541.016 6  85338393.87406      5306.286 6        41.094
R07  22125451.432 6 118439327.86406      -192.348 6        37.719    22125455.241 6  92119456.84206      -149.132 6        36.375
R08  19325395.180 8 103486614.47708      2750.648 8        50.500    19325400.587 7  80489611.04407      2139.358 7        47.406
R15  23735734.344 6 126836720.99906      1816.212 6        38.781    23735746.052 7  98650917.64607      1412.642 7        42.406
R16  23788818.352 7 127075633.45607      4825.041 7        43.125    23788828.780 6  98836626.59906      3752.795 6        38.656
R17  24299103.683 5                      7781.498 5        31.281    24299115.615 6 101134026.59606      6052.276 6        39.750
R22  23168808.052 7 123676687.44307      -257.403 7        42.438    23168821.394 6  96193016.51006      -200.220 6        39.844
R23  19370260.349 8 103617831.32908      2391.791 8        48.344
R24  20113437.674 8 107555591.09908      6220.220 8        51.281    20113444.836 7  83654378.64507      4837.867 7        46.500
S23  38774232.368 7 203759964.18707      3563.193 7        43.031
S36  38183921.203 7 200657851.09907      3566.940 7        44.438
> 2023 06 09 15 28 59.0000000  0 37
C05  40339671.593 5 210059252.21505      3513.238 5        34.219    40339680.588 5 162431176.27505      2717.203 5        35.094
C06  39166644.568 6 203951031.37806      4008.425 6        37.563    39166648.375 5 157707859.62205      3099.990 5        34.156
C09  39028722.818 6                      4588.197 6        40.031    39028730.999 6 157152506.34306      3547.823 6        38.813
C16  39315200.997 4                      3835.948 4        27.219    39315211.851 4                      2966.117 4        29.594
C20  23705031.104 8 123438319.79208      6430.648 8        49.031
C27  24314643.365 7 126612718.95307       435.995 7        47.094
C29  23349697.770 8 121588007.03108      5880.218 8        48.844
C30  21673065.121 8 112857333.49408      2705.369 8        51.656
C32  21700872.232 8 113002136.79208      3613.250 8        52.000
E02  27296305.918 5 143443115.56905      2398.369 5        33.813    27296316.688 5 109910961.74305      1837.426 5        35.125
E04  24290415.749 7 127647002.41107      5406.437 7        47.906    24290423.071 7  97807467.82807      4142.580 7        46.469
E10  23586136.931 8 123945982.74508      2772.683 8        49.156    23586143.752 7  94971627.22107      2124.517 7        46.719
E11  22621627.268 7 118877452.10907      4194.590 7        45.250    22621630.583 7  91087934.16307      3213.986 7        43.313
E12  24908360.133 7 130894310.33107      1693.208 7        43.188    24908365.886 6 100295663.10206      1297.269 6        41.750
E19  25734648.950 6 135236490.98906      2225.439 6        38.094    25734654.962 5 103622788.35205      1705.128 5        34.969
E30                                                                  28503108.447 4                      3586.268 4        26.906
E36  26185044.295 7 137603334.66207      6013.176 7        44.281    26185054.179 6 105436370.28606      4607.530 6        41.563
G01  20058386.931 8 105407532.89908      2589.347 8        50.500    20058392.363 8  82135760.63108      2017.674 8        51.563    20058392.609 7  82135764.64107      2017.566 7        45.969
G02  21221834.394 8 111521489.67808      2221.260 8        48.438    21221835.990 6  86899871.32806      1730.850 6        37.938
G03  20391651.597 8 107158858.14608      4773.604 8        49.781    20391657.812 8  83500430.40008      3719.683 8        52.406    20391657.986 7  83500434.40907      3719.701 7        46.781
G04  23688706.652 5 124484994.95205      7297.735 5        34.906    23688715.863 1  97001328.04901      5686.545 1        10.219    23688714.320 5                      5686.296 5        33.250
G14                                                                                                                                  24429556.452 4                       720.712 4        27.563
G17  22002474.406 7 115623779.62007      5435.649 7        47.188    22002477.307 5  90096469.73905      4235.567 5        34.406    22002477.272 6  90096467.74706      4235.511 6        41.344
G19  23318750.726 6 122540892.18406      6888.949 6        40.250    23318754.335 4  95486406.17204      5368.019 4        24.969
G21  21819259.631 7 114660981.97507      1627.766 7        47.969    21819262.537 5  89346231.58605      1268.390 5        34.250
G32  24029297.069 5 126274803.39805       779.822 5        32.500    24029304.053 4  98395981.67204       607.652 4        26.688    24029305.748 5  98396177.62105       607.401 5        35.281
R01  20524256.129 7 109713903.79707      6821.686 7        46.156    20524264.654 6  85333087.94406      5305.646 6        41.156
R07  22125487.294 6 118439520.30406      -192.518 6        37.938    22125490.477 6  92119606.53806      -149.853 6        36.594
R08  19324881.570 8 103483864.37608      2749.712 8        50.625    19324887.204 7  80487472.07507      2138.628 7        47.719
R15  23735394.103 6 126834905.24706      1815.333 6        38.250    23735406.151 7  98649505.41007      1411.929 7        42.438
R16  23787914.986 7 127070809.03807      4823.901 7        42.063    23787925.803 6  98832874.23906      3751.918 6        38.625
R17  24297649.681 5                      7786.834 5        34.063    24297661.841 6 101127974.37206      6052.315 6        39.219
R22  23168856.283 7 123676945.01507      -257.584 7        42.750    23168870.152 6  96193216.82206      -200.199 6        40.063
R23  19369813.276 8 103615439.97908      2391.001 8        48.313
R24  20112274.467 8 107549371.30508      6219.571 8        51.094    20112281.486 7  83649541.02607      4837.483 7        46.500
S23  38773555.409 7 203756401.05307      3563.246 7        43.875
S36  38183241.642 7 200654284.28507      3566.828 7        44.313
> 2023 06 09 15 29  0.0000000  0 38
C05  40338997.729 5 210055739.63105      3512.756 5        34.625    40339006.178 5 162428460.16005      2716.320 5        35.938
C06  39165874.331 5 203947023.75005      4007.814 5        34.906    39165878.161 5 157704760.76505      3098.913 5        31.156
C09  39027841.591 6                      4587.616 6        39.906    39027850.013 6 157148959.06706      3547.249 6        39.406
C16  39314466.546 4                      3835.291 4        25.969    39314475.863 4                      2965.101 4        26.500
C20  23703796.382 8 123431889.99908      6429.788 8        48.531
C27  24314559.616 7 126612283.75407       435.385 7        46.625
C29  23348568.761 8 121582127.68108      5879.298 8        48.688
C30  21672545.813 8 112854629.04808      2704.333 8        51.750
C32  21700178.460 8 112998524.49308      3612.249 8        52.000
E02  27295850.193 5 143440718.43905      2396.997 5        34.719    27295860.475 5 109909124.96905      1836.614 5        35.438
E04  24289387.120 7 127641596.94707      5405.344 7        47.625    24289394.334 7  97803325.98407      4141.858 7        46.219
E10  23585609.530 8 123943210.94208      2771.732 8        49.188    23585616.342 7  94969503.36707      2123.822 7        46.938
E11  22620829.070 7 118873258.31607      4193.780 7        45.281    22620832.582 7  91084720.72707      3213.519 7        43.344
E12  24908038.087 7 130892617.99407      1692.434 7        43.125    24908043.812 6 100294366.35606      1296.793 6        41.406
E19  25734225.818 6 135234266.53206      2224.359 6        38.438    25734231.839 5 103621083.87505      1704.479 5        35.656
E30  28502218.798 5 149780273.05505      4680.351 5        33.563    28502219.748 4                      3585.579 4        25.594
E36  26183900.119 7 137597322.23207      6012.434 7        44.000    26183910.043 7 105431763.35707      4606.996 7        42.313
G01  20057894.314 8 105404944.50708      2588.361 8        50.375    20057899.787 8  82133743.70408      2016.905 8        51.656    20057899.796 7  82133747.70607      2016.855 7        45.938
G02  21221411.808 8 111519269.35808      2220.325 8        48.625    21221413.480 6  86898141.20906      1730.125 6        38.188
G03  20390743.334 8 107154085.47308      4772.591 8        49.781    20390749.603 8  83496711.43708      3718.902 8        52.375    20390749.773 7  83496715.44207      3718.944 7        46.969
G04  23687317.842 5 124477697.93105      7297.007 5        35.281    23687327.321 1  96995642.05901      5685.976 1        10.500    23687326.100 5                      5685.824 5        32.750
G14                                                                                                                                  24429381.142 4                       719.460 4        25.406
G17  22001440.227 7 115618345.04007      5434.562 7        46.875    22001443.124 5  90092235.00305      4234.721 5        34.438    22001443.066 6  90092233.01606      4234.615 6        41.656
G19  23317439.919 6 122534004.23706      6887.991 6        40.750    23317443.662 4  95481038.93404      5367.271 4        25.125
G21  21818950.020 7 114659355.07207      1626.881 7        47.750    21818952.936 5  89344963.86805      1267.704 5        34.469
G28                                                                                                                                  24344922.790 5                      4207.039 5        32.719
G32  24029147.605 5 126274024.38905       779.518 5        32.688    24029155.926 4  98395374.62704       607.456 4        26.781    24029157.344 6  98395570.56206       607.086 6        36.344
R01  20522980.022 7 109707083.15207      6820.583 7        46.344    20522988.708 6  85327783.00706      5304.829 6        41.031
R07  22125523.349 5 118439713.84305      -194.008 5        32.000    22125526.299 5  92119757.02205      -150.353 5        34.969
R08  19324368.308 8 103481115.79908      2748.298 8        50.813    19324373.907 7  80485334.28507      2137.638 7        47.469
R15  23735053.813 6 126833090.90006      1814.173 6        39.000    23735067.090 7  98648094.26407      1411.003 7        42.781
R16  23787011.633 6 127065985.96106      4822.638 6        40.063    23787023.080 6  98829122.98406      3751.376 6        37.469
R17  24296198.045 5                      7781.080 5        34.000    24296207.638 6 101121922.71106      6051.829 6        40.375
R22  23168904.657 7 123677203.59207      -258.647 7        42.188    23168918.406 6  96193417.93706      -201.079 6        38.750
R23  19369366.539 8 103613050.05408      2389.772 8        48.563
R24  20111111.617 8 107543152.70508      6218.510 8        51.219    20111118.591 7  83644704.33707      4836.729 7        46.469
S23  38772879.679 7 203752838.64007      3562.587 7        43.313
S36  38182564.441 7 200650718.24607      3566.163 7        44.813
> 2023 06 09 15 29  1.0000000  0 38
C05  40338323.699 5 210052227.40905      3512.133 5        33.719    40338331.839 6 162425744.34306      2714.880 6        36.031
C06  39165104.559 5 203943016.78305      4006.181 5        33.188    39165108.648 5 157701662.31305      3097.849 5        31.688
C09  39026960.288 6                      4585.813 6        38.094    39026969.000 6 157145412.25506      3545.477 6        37.438
C16  39313730.875 4                      3835.005 4        25.438    39313740.621 4                      2964.859 4        25.156
C20  23702561.557 8 123425460.84008      6428.344 8        48.250
C27  24314476.010 7 126611849.13607       433.690 7        46.563
C29  23347439.663 8 121576249.03208      5877.822 8        48.719
C30  21672026.725 8 112851925.48708      2702.749 8        51.781
C32  21699484.911 8 112994913.08208      3610.513 8        51.875
E02  27295393.698 5 143438322.14305      2395.177 5        33.375    27295404.374 5 109907288.82005      1835.409 5        35.000
E04  24288358.548 7 127636192.24207      5403.875 7        47.500    24288365.664 7  97799184.72307      4140.741 7        46.063
E10  23585082.254 8 123940439.78808      2770.354 8        49.500    23585089.133 7  94967380.03207      2122.767 7        47.063
E11  22620031.154 7 118869065.16707      4192.340 7        45.031    22620034.670 7  91081507.80207      3212.265 7        43.250
E12  24907716.322 7 130890926.26007      1690.789 7        43.063    24907721.802 6 100293070.11506      1295.435 6        41.625
E19  25733802.606 6 135232042.88706      2222.787 6        37.906    25733808.756 5 103619380.05805      1703.238 5        34.500
E30  28501327.233 5 149775593.61805      4678.785 5        33.188    28501329.698 4                      3584.925 4        24.156
E36  26182755.992 7 137591310.25807      6011.395 7        44.094    26182766.099 6 105427156.78906      4606.179 6        41.781
G01  20057402.034 8 105402356.99208      2586.519 8        50.594    20057407.377 8  82131727.45708      2015.468 8        51.719    20057407.238 7  82131731.47207      2015.490 7        45.656
G02  21220989.508 8 111517049.78308      2218.950 8        48.844    21220991.104 6  86896411.66906      1729.051 6        38.344
G03  20389835.393 8 107149313.69308      4770.826 8        49.906    20389841.573 8  83492993.16708      3717.528 8        52.438    20389841.765 7  83492997.16507      3717.576 7        46.750
G04  23685929.135 5 124470401.41805      7295.566 5        35.281    23685938.864 1  96989956.47201      5684.882 1        11.094    23685936.937 5                      5685.453 5        30.656
G14                                                                                                                                  24429204.853 4                       718.155 4        24.438
G17  22000406.137 7 115612911.34207      5432.797 7        47.188    22000409.128 5  90088000.95405      4233.346 5        34.375    22000408.891 6  90087998.96606      4233.190 6        40.844
G19  23316129.345 6 122527117.03706      6886.274 6        41.281    23316133.136 4  95475672.29004      5365.931 4        25.281
G21  21818640.517 7 114657728.80807      1625.612 7        47.844    21818643.477 5  89343696.64905      1266.715 5        34.656
G28                                                                                                                                  24343894.303 5                      4206.357 5        32.219
G32  24028998.955 5 126273245.92905       777.874 5        31.969    24029007.857 4  98394768.00504       606.157 4        26.688    24029009.262 5  98394963.98605       606.264 5        35.063
R01  20521704.259 7 109700263.47507      6818.734 7        46.469    20521713.289 6  85322478.80206      5303.522 6        40.813
R07  22125561.747 4 118439907.78604      -194.211 4        29.469    22125562.609 5  92119907.86405      -151.063 5        33.313
R08  19323855.390 8 103478368.41208      2746.324 8        50.406    19323860.739 7  80483197.43707      2136.128 7        47.125
R15  23734714.296 6 126831277.63306      1812.394 6        38.625    23734728.043 7  98646683.94907      1409.473 7        42.531
R16  23786108.723 6 127061164.14106      4820.341 6        40.406    23786121.275 6  98825372.80806      3748.908 6        37.656
R17  24294745.564 5 130006069.41415      7779.774 5        33.125    24294753.511 6 101115871.27606      6051.091 6        39.969
R22  23168953.313 7 123677462.73907      -259.860 7        42.625    23168966.869 6  96193619.51206      -202.493 6        39.563
R23  19368920.114 8 103610661.22508      2387.728 8        48.656
R24  20109948.776 8 107536934.92308      6216.888 8        50.969    20109955.835 7  83639868.30007      4835.413 7        46.219
S23  38772201.388 7 203749276.62707      3561.273 7        43.250
S36  38181886.315 7 200647152.65907      3564.994 7        44.344
> 2023 06 09 15 29  2.0000000  0 38
C05  40337649.168 5 210048715.68805      3511.406 5        35.063    40337657.353 5 162423028.73305      2714.944 5        35.750
C06  39164335.261 5 203939010.20705      4006.503 5        31.688    39164340.066 3                      3098.579 3        21.406
C09  39026079.307 5                      4586.002 5        35.531    39026088.587 5 157141866.09905      3545.600 5        34.188
C16  39312994.546 4                      3833.001 4        26.344
C20  23701326.902 8 123419032.36808      6428.148 8        48.219
C27  24314392.435 7 126611415.14207       433.952 7        46.313
C29  23346310.744 8 121570371.11808      5877.223 8        48.094
C30  21671507.762 8 112849222.83208      2702.182 8        51.688
C32  21698791.505 8 112991302.54508      3610.067 8        52.250
E02  27294937.991 5 143435926.63605      2395.016 5        33.969    27294948.702 5 109905453.32205      1835.088 5        35.125
E04  24287330.146 7 127630788.33707      5403.445 7        47.531    24287337.312 7  97795044.08507      4140.233 7        45.750
E10  23584555.023 8 123937669.35908      2769.944 8        49.000    23584562.117 7  94965257.22207      2122.388 7        47.188
E11  22619233.273 7 118864872.72907      4191.821 7        44.969    22619236.906 7  91078295.40207      3212.102 7        43.281
E12  24907394.670 7 130889235.11407      1690.652 7        43.969    24907399.984 6 100291774.27306      1295.466 6        41.563
E19  25733379.595 5 135229820.08905      2221.994 5        34.156    25733385.987 5 103617676.94005      1702.719 5        30.781
E30  28500435.470 5 149770915.01805      4678.054 5        31.938    28500440.266 3                      3584.858 3        23.875
E36  26181611.820 7 137585298.75807      6011.224 7        43.625    26181622.093 6 105422550.60606      4605.432 6        41.969
G01  20056909.864 8 105399770.36008      2585.913 8        50.500    20056915.136 8  82129711.90208      2014.997 8        51.688    20056914.725 7  82129715.92407      2014.976 7        45.281
G02  21220567.373 8 111514831.00208      2218.368 8        48.844    21220568.884 6  86894682.74706      1728.603 6        38.531
G03  20388927.618 8 107144542.81508      4770.113 8        50.094    20388933.704 8  83489275.60008      3716.970 8        52.406    20388933.918 7  83489279.58707      3717.116 7        46.719
G04  23684540.320 5 124463105.49805      7295.436 5        34.719    23684550.435 1  96984271.31901      5684.765 1        10.500    23684547.868 5                      5684.978 5        30.000
G14                                                                                                                                  24429028.537 3                       718.202 3        22.938
G17  21999372.343 7 115607478.55907      5431.889 7        47.063    21999375.294 5  90083767.61705      4232.636 5        34.344    21999375.048 6  90083765.61706      4232.667 6        40.938
G19  23314819.365 7 122520230.59807      6886.068 7        42.000    23314822.732 4  95470306.22504      5365.765 4        25.594
G21  21818331.090 8 114656103.23208      1625.168 8        48.094    21818334.161 5  89342429.96505      1266.366 5        34.875
G28                                                                                                                                  24342866.899 5                      4205.711 5        31.313
G32  24028852.259 5 126272468.36805       777.561 5        34.000    24028859.936 4  98394162.11204       605.885 4        26.438    24028861.935 5  98394358.18705       605.301 5        34.531
R01  20520428.487 7 109693444.78807      6818.024 7        46.188    20520438.014 6  85317175.37406      5303.152 6        40.875
R07  22125597.189 5 118440102.87405      -195.142 5        31.469    22125599.710 6  92120059.48906      -152.000 6        39.219
R08  19323342.558 8 103475622.24108      2745.294 8        50.469    19323347.638 7  80481061.52507      2135.348 7        47.063
R15  23734374.564 6 126829465.52906      1811.187 6        38.594    23734389.013 7  98645274.52207      1408.934 7        42.375
R16  23785206.073 6 127056343.49306      4819.938 6        40.719    23785220.632 5  98821623.38705      3748.307 5        33.563
R17  24293293.454 5 129998289.23105      7779.867 5        35.563    24293299.850 6 101109820.08206      6050.804 6        39.688
R22  23169002.541 7 123677722.59607      -260.546 7        42.250    23169015.529 6  96193821.54406      -201.997 6        39.594
R23  19368473.842 8 103608273.48808      2387.006 8        48.750
R24  20108786.159 8 107530718.05108      6216.222 8        50.938    20108793.048 7  83635032.95607      4834.752 7        46.344
S23  38771523.266 7 203745714.98807      3561.639 7        44.156
S36  38181209.491 7 200643587.48507      3564.848 7        45.313
> 2023 06 09 15 29  3.0000000  0 38
C05                                                                  40336983.242 5 162420313.72405      2714.314 5        31.188
C06  39163566.692 4 203935004.35204      4005.818 4        28.094    39163569.565 4                      3097.205 4        28.563
C09  39025198.607 5 203214451.76605      4585.015 5        34.875    39025208.867 5 157138319.92405      3545.559 5        31.906
C16  39312259.040 4                      3832.539 4        24.688
C20  23700092.501 8 123412604.61208      6426.646 8        49.406
C27  24314309.058 7 126610981.81807       432.334 7        45.000
C29  23345182.294 7 121564493.96207      5876.375 7        47.844
C30  21670988.987 8 112846521.15208      2700.541 8        52.656
C32  21698098.489 8 112987692.97708      3608.514 8        50.125
E02  27294482.574 5 143433532.02205      2393.394 5        34.531    27294493.048 5 109903618.49805      1833.810 5        35.031
E04  24286302.049 7 127625385.31407      5402.062 7        46.813    24286309.241 7  97790904.07607      4139.204 7        45.563
E10  23584027.850 7 123934899.73207      2768.792 7        45.719    23584035.248 7  94963135.06307      2121.445 7        43.656
E11  22618435.715 7 118860680.98907      4190.812 7        46.250    22618439.316 7  91075083.54607      3211.186 7        44.125
E12  24907073.428 5 130887544.94905      1689.576 5        35.469    24907078.353 5 100290479.22805      1294.738 5        33.813
E19  25732956.611 5 135227598.07505      2220.888 5        35.656    25732962.922 5 103615974.19605      1701.837 5        30.375
E30  28499543.654 5 149766237.28705      4676.432 5        32.750    28499550.914 3                      3583.115 3        23.906
E36  26180468.082 7 137579287.80107      6010.309 7        44.500    26180478.193 6 105417944.78506      4605.145 6        41.469
G01  20056417.798 8 105397184.69708      2584.656 8        48.281    20056423.070 8  82127697.09708      2014.030 8        51.000    20056422.462 7  82127701.12207      2013.923 7        42.094
G02  21220145.274 7 111512613.19907      2217.008 7        43.063    21220146.852 6  86892954.58806      1727.539 6        37.594
G03  20388020.129 8 107139772.86108      4768.891 8        50.563    20388026.005 8  83485558.75208      3716.021 8        52.500    20388026.228 7  83485562.73607      3716.061 7        47.313
G04  23683152.418 5 124455810.17505      7294.551 5        34.938    23683162.161 1  96978586.62901      5684.032 1        10.281    23683159.089 5                      5684.063 5        31.313
G14                                                                                                                                  24428850.902 3                       716.436 3        21.188
G17  21998338.759 7 115602046.69307      5430.772 7        46.438    21998341.629 5  90079534.99605      4231.774 5        34.375    21998341.419 6  90079532.99706      4231.807 6        40.906
G19  23313509.631 7 122513345.00507      6884.598 7        42.563    23313512.457 4  95464940.82904      5364.625 4        25.563
G21  21818022.271 6 114654478.58906      1624.134 6        40.750    21818025.038 5  89341164.01305      1265.566 5        34.031
G28                                                                                                                                  24341840.581 4                      4205.301 4        28.469
G32  24028705.536 6 126271691.77106       775.681 6        36.031    24028712.171 4  98393556.98604       604.462 4        26.031    24028713.687 5  98393752.97305       604.156 5        31.094
R01  20519153.055 7 109686627.13307      6816.502 7        46.594    20519162.823 6  85311872.75606      5301.834 6        40.969
R07  22125634.165 3                      -197.678 3        21.469    22125636.748 5  92120211.56005      -152.835 5        35.906
R08  19322830.177 8 103472877.28508      2743.765 8        49.750    19322834.993 7  80478926.52407      2134.008 7        44.469
R15  23734036.147 6 126827654.62806      1809.635 6        39.656    23734050.328 7  98643866.00907      1407.482 7        42.813
R16  23784304.222 6 127051524.17206      4818.002 6        40.344    23784320.915 5  98817874.99605      3747.592 5        31.969
R17  24291841.232 5 129990509.49505      7779.421 5        34.188    24291845.839 6 101103769.16606      6050.220 6        39.063
R22  23169051.716 6                      -260.405 6        36.469    23169064.440 6                      -203.359 6        36.500
R23  19368027.749 7 103605886.97907      2385.442 7        44.406
R24  20107623.577 8 107524502.16308      6214.859 8        50.656    20107630.824 7  83630198.40107      4833.729 7        46.281
S23  38770846.222 6 203742153.79006      3560.567 6        41.188
S36  38180530.421 7 200640022.89607      3563.859 7        45.875
> 2023 06 09 15 29  4.0000000  0 38
C05                                                                  40336309.794 5 162417599.10205      2714.348 5        32.469
C06  39162797.953 4 203930999.61504      4004.448 4        27.719    39162801.734 4                      3096.690 4        29.406
