     3.03           OBSERVATION DATA    M: Mixed            RINEX VERSION / TYPE
CONVBIN 2.4.3                           20230609 124426 UTC PGM / RUN BY / DATE 
log: C:\Users\augustin.morge\Documents\uwb_project\log_trollCOMMENT             
format: RINEX                                               COMMENT             
SEPT                                                        MARKER NAME         
Unknown                                                     MARKER NUMBER       
                                                            MARKER TYPE         
                                                            OBSERVER / AGENCY   
3047871             SEPT ASTERX4        4.10.0              REC # / TYPE / VERS 
Unknown             Unknown                                 ANT # / TYPE        
  4198187.8169   151309.0003  4783361.9919                  APPROX POSITION XYZ 
        0.0000        0.0000        0.0000                  ANTENNA: DELTA H/E/N
G   12 C1C L1C D1C S1C C2L L2L D2L S2L C2W L2W D2W S2W      SYS / # / OBS TYPES 
R    8 C1C L1C D1C S1C C2C L2C D2C S2C                      SYS / # / OBS TYPES 
E    8 C1C L1C D1C S1C C7Q L7Q D7Q S7Q                      SYS / # / OBS TYPES 
  2023     6     6    12    55   12.0000000     GPS         TIME OF FIRST OBS   
  2023     6     6    13    11   56.0000000     GPS         TIME OF LAST OBS    
G                                                           SYS / PHASE SHIFT   
R                                                           SYS / PHASE SHIFT   
E                                                           SYS / PHASE SHIFT   
  2 R02 -4 R19  3                                           GLONASS SLOT / FRQ #
 C1C    0.000 C1P    0.000 C2C    0.000 C2P    0.000        GLONASS COD/PHS/BIS 
                                                            END OF HEADER       
> 2023  6  6 12 55 12.0000000  0 26                     
E 7  26293341.552   138172557.132        4170.208          43.000    26293351.244   105872436.949        3195.432          41.250  
E 8  28409830.578                        1859.716          22.000    28409831.023                        1424.871          30.000  
E12  25418393.865   133574564.769        5699.493          33.250    25418400.860   102349401.946        4367.152          34.000  
E24  25330096.789   133110574.128        4248.918          33.750    25330106.208   101993843.939        3255.594          36.500  
E26  25476662.387   133880781.565        1598.358          33.500    25476676.028   102584004.154        1225.023          43.750  
E31  25120202.528   132007534.469        1624.853          38.750    25120210.409   101148671.580        1244.630          29.250  
E33  23347085.957   122689758.492        3511.466          49.500    23347093.225    94009067.391        2690.645          46.500  
G 1  22329146.120   117340474.984        6708.046          30.500    22329152.568                        5225.698          23.000                                                                  
G 2  21534446.992   113164279.159        5192.366          47.000                                                                    21534449.026    88179984.283        4046.001          27.500  
G 8  20204192.162   106174410.430        3448.898          47.750    20204199.200    82733257.570        2687.493          45.500    20204198.435    82732811.566        2687.453          48.500  
G10  21535212.854   113169169.293        1976.352          48.250    21535219.915    88183678.499        1540.136          42.500    21535219.454    88183231.501        1540.022          47.250  
G14  24186412.941   127100452.365        6437.838          28.000    24186435.674    99039368.404        5016.238          30.500    24186420.600    99039348.302        5016.512           4.000  
G16  25063451.110                        -154.269          22.250                                                                                                                                  
G21  20905816.783   109860806.504        4826.827          46.750                                                                    20905820.611    85605845.752        3761.159          31.500  
G23  24022504.645                         340.250          31.000    24022499.400                         265.362          30.000                                                                  
G27  21262942.955   111737152.157        1230.624          47.500    21262949.448    87068843.544         958.897          42.500    21262998.452    87068641.415         958.935          15.500  
G32  23796439.264   125051156.834        6238.828          37.750    23796453.233    97442538.739        4861.600          31.250    23796451.368    97442529.807        4861.414          24.750  
R 2  23785353.406                          21.760          24.000                                                                  
R 3  20673470.890   110666807.810        2985.236          47.000    20673479.824    86074088.138        2321.852          42.500  
R 4  20781826.376   111285758.508        6888.347          47.750    20781833.992    86555623.152        5357.511          44.000  
R 9  22264172.745                         232.709          25.250    22264180.525    92469598.233         180.631          37.000  
R10  21525396.834                        2912.917          28.750                                                                  
R11                                                                  23416572.396    97324208.112        5079.872          38.750  
R18  21614646.648   115380457.666         980.915          47.250    21614657.619    89740970.837         762.954          41.250  
R19  19540304.466   104527447.353        3270.155          41.750    19540313.373    81299163.119        2543.447          44.500  
R20  21614835.583                        6661.344          26.750    21614839.419                        5180.795          29.500  
> 2023  6  6 12 55 13.0000000  0 26                     
E 7  26292547.942   138168387.349        4169.804          43.000    26292557.777   105869241.913        3195.077          41.000  
E 8  28409477.007                        1858.695          23.500    28409477.291                        1424.343          30.750  
E12  25417309.264   133568865.615        5699.121          33.250    25417316.465   102345035.054        4367.106          34.250  
E24  25329288.547   133106325.621        4248.379          33.000    25329297.743   101990588.571        3255.287          36.000  
E26  25476358.277   133879183.061        1598.323          32.500    25476371.904   102582779.346        1225.049          43.750  
E31  25119893.458   132005910.043        1624.648          39.250    25119900.946   101147426.912        1244.437          30.250  
E33  23346417.820   122686247.346        3511.245          49.250    23346425.062    94006377.028        2690.504          46.500  
G 1  22327869.655   117333767.140        6707.884          31.000    22327876.644                        5226.255          22.750                                                                  
G 2  21533458.889   113159087.085        5192.155          46.500                                                                    21533460.950    88175938.502        4045.848          27.000  
G 8  20203535.781   106170961.966        3448.396          47.500    20203543.177    82730570.451        2687.092          45.250    20203542.220    82730124.453        2687.059          48.250  
G10  21534836.822   113167193.412        1975.848          48.250    21534843.753    88182138.832        1539.724          42.250    21534843.471    88181691.849        1539.627          47.000  
G14  24185188.315   127094015.404        6436.843          34.250    24185211.693    99034352.553        5015.585          28.750    24185195.885    99034332.450        5015.723           3.000  
G16  25063480.958                        -152.754          18.000                                                                                                                                  
G21  20904898.285   109855979.986        4826.576          46.250                                                                    20904902.126    85602084.834        3760.963          31.250  
G23  24022440.370                         339.682          30.250    24022435.402                         264.794          29.250                                                                  
G27  21262708.812   111735921.954        1230.171          47.500    21262715.492    87067884.947         958.513          42.250    21262764.457    87067682.783         958.558          15.500  
G32  23795252.728   125044918.284        6238.618          38.500    23795265.825    97437677.592        4861.013          31.500    23795264.233    97437668.596        4861.270          24.500  
R 2  23785351.586                          24.188          19.500                                                                  
R 3  20672913.601   110663823.258        2984.274          46.250    20672922.409    86071766.797        2321.183          42.750  
R 4  20780539.966   111278870.790        6887.530          48.000    20780547.743    86550266.031        5357.089          43.500  
R 9  22264127.635                         230.073          22.750    22264137.436    92469417.846         180.467          36.500  
R10  21524850.330                        2910.638          25.250                                                                  
R11                                                                  23415350.118    97319128.622        5079.368          37.250  
R18  21614462.998   115379477.092         980.680          47.000    21614473.612    89740208.163         762.620          40.500  
R19  19539693.017   104524177.613        3269.679          41.250    19539702.389    81296619.979        2543.194          44.000  
R20                                                                  21613593.504                        5180.884          29.750  
> 2023  6  6 12 55 14.0000000  0 24                     
E 7  26291754.287   138164217.808        4169.430          43.000    26291764.292   105866047.073        3194.587          41.250  
E 8  28409125.538                        1859.175          20.500    28409123.438                        1423.993          31.750  
E12  25416224.918   133563166.348        5699.323          33.750    25416232.039   102340668.096        4366.934          34.500  
E24  25328479.461   133102077.271        4247.892          32.750    25328489.041   101987333.352        3255.018          36.250  
E26  25476053.835   133877584.420        1598.543          34.000    25476067.713   102581554.406        1224.875          43.750  
E31  25119584.402   132004285.765        1623.986          39.500    25119591.849   101146182.337        1244.387          30.250  
E33  23345749.711   122682736.176        3510.966          49.750    23345756.925    94003686.648        2690.237          47.000  
G 1  22326592.985   117327059.308        6707.334          31.750    22326599.115                        5227.695          24.000                                                                  
G 2  21532470.732   113153895.055        5191.815          47.250                                                                    21532472.878    88171892.763        4045.566          27.000  
G 8  20202879.378   106167513.789        3447.847          48.250    20202887.217    82727883.562        2686.662          45.250    20202886.050    82727437.563        2686.633          48.250  
G10  21534461.009   113165217.787        1975.317          49.250    21534467.622    88180599.396        1539.222          43.000    21534467.528    88180152.396        1539.210          47.000  
G14  24183962.398   127087578.889        6435.920          26.750    24183987.049    99029337.025        5015.056          29.500    24183971.564    99029317.026        5014.927           3.500  
G21  20903979.926   109851153.576        4826.219          47.000                                                                    20903983.664    85598324.000        3760.690          31.250  
G23  24022375.281                         339.814          30.500    24022370.849                         264.617          29.250                                                                  
G27  21262474.969   111734691.907        1229.819          48.250    21262481.385    87066926.471         958.309          42.500    21262530.524    87066724.313         958.315          15.000  
G32  23794066.022   125038679.867        6238.239          38.750    23794077.478    97432816.431        4861.053          29.750    23794077.187    97432807.490        4860.953          24.500  
R 3  20672356.106   110660839.343        2983.453          46.250    20672365.155    86069445.969        2320.469          43.000  
R 4  20779253.901   111271983.478        6886.880          48.000    20779261.423    86544909.230        5356.575          44.500  
R 9  22264085.342                         231.174          24.250    22264093.722    92469237.606         180.086          37.500  
R10  21524303.102                        2910.077          27.750                                                                  
R11                                                                  23414128.422    97314049.479        5078.883          38.500  
R18  21614279.174   115378496.470         980.453          47.500    21614289.609    89739445.469         762.633          41.500  
R19  19539082.202   104520908.038        3269.339          42.000    19539091.265    81294076.982        2542.855          44.750  
R20  21612347.676                        6661.424          28.000    21612349.990                        5180.901          30.250  
> 2023  6  6 12 55 15.0000000  0 24                     
E 7  26290961.026   138160048.797        4168.768          42.500    26290970.941   105862852.630        3194.302          41.500  
E 8  28408772.642                        1857.034          22.750    28408769.893                        1423.445          31.000  
E12  25415140.415   133557467.327        5698.820          33.250    25415147.594   102336301.260        4366.898          34.500  
E24  25327670.862   133097829.488        4247.750          32.750    25327680.701   101984078.594        3254.853          36.750  
E26  25475750.539   133875985.943        1598.474          35.000    25475763.464   102580329.595        1224.742          44.000  
E31  25119275.681   132002661.867        1623.764          39.250    25119282.726   101144938.047        1244.559          29.000  
E33  23345081.615   122679225.289        3510.761          49.500    23345088.758    94000996.482        2690.130          47.000  
G 1  22325316.229   117320351.725        6707.415          31.000    22325321.367                        5227.156          25.250                                                                  
G 2  21531482.825   113148703.365        5191.549          47.000                                                                    21531484.886    88167847.293        4045.365          27.000  
G 8  20202223.284   106164066.223        3447.268          48.250    20202231.234    82725197.142        2686.199          45.250    20202229.991    82724751.147        2686.185          48.250  
G10  21534085.415   113163242.711        1974.892          49.000    21534091.648    88179060.382        1538.928          43.250    21534091.698    88178613.372        1538.877          47.250  
G14  24182738.953   127081142.651        6436.784          28.250    24182761.749    99024321.793        5015.332          30.000    24182746.590    99024301.796        5015.619           4.250  
G21  20903061.593   109846327.552        4825.847          47.000                                                                    20903065.291    85594563.461        3760.399          31.500  
G23  24022310.487                         339.442          30.750    24022306.422                         264.249          30.250                                                                  
G27  21262241.094   111733462.318        1229.494          47.750    21262247.072    87065968.349         957.935          42.250    21262296.501    87065766.167         958.042          14.500  
G32  23792879.262   125032441.800        6237.930          38.750    23792890.016    97427955.634        4860.784          30.250    23792890.163    97427946.656        4860.736          24.500  
R 3  20671798.968   110657856.381        2982.575          46.500    20671807.960    86067125.903        2319.791          43.000  
R 4  20777967.728   111265096.865        6886.296          47.500    20777975.357    86539552.992        5356.011          44.750  
R 9  22264042.383                         230.603          24.000    22264050.423    92469057.706         179.768          37.750  
R10  21523756.446                        2909.637          27.500                                                                  
R11  23412918.212   125111396.4691       6529.373          36.000    23412906.703    97308970.852        5078.420          38.500  
R18  21614095.274   115377516.161         980.216          47.500    21614105.526    89738682.993         762.338          40.500  
R19  19538471.347   104517638.941        3269.011          42.000    19538480.138    81291534.357        2542.520          45.000  
R20  21611101.032                        6661.114          28.250    21611105.927                        5180.563          30.000  
> 2023  6  6 12 55 16.0000000  0 24                     
E 7  26290167.849   138155880.370        4168.499          42.000    26290177.832   105859658.640        3194.161          42.000  
E 8  28408419.325                        1858.139          24.000    28408416.685                        1423.542          30.750  
E12  25414055.783   133551768.497        5698.707          33.500    25414063.114   102331934.671        4366.747          34.500  
E24  25326863.251   133093582.298        4247.339          33.000    25326872.728   101980824.304        3254.370          35.750  
E26  25475446.325   133874387.689        1598.364          34.500    25475459.286   102579104.933        1224.844          43.750  
E31  25118966.710   132001038.439        1623.513          38.750    25118973.853   101143694.144        1243.732          29.250  
E33  23344413.554   122675714.724        3510.782          49.750    23344420.738    93998306.579        2690.045          47.250  
G 1  22324039.979   117313644.548        6707.439          30.250    22324045.921                        5225.760          24.000                                                                  
G 2  21530495.048   113143512.049        5191.437          47.000                                                                    21530496.948    88163802.115        4045.264          26.750  
G 8  20201567.395   106160619.288        3446.939          48.500    20201575.243    82722511.230        2685.867          45.250    20201574.044    82722065.222        2685.928          48.500  
G10  21533709.754   113161268.256        1974.468          49.250    21533715.665    88177521.836        1538.530          43.250    21533715.996    88177074.834        1538.551          47.250  
G14  24181514.399   127074706.930        6435.302          26.000    24181537.231    99019306.930        5014.700          30.000    24181522.045    99019286.983        5014.261           3.500  
G21  20902143.359   109841501.949        4825.779          46.500                                                                    20902147.003    85590803.254        3760.338          31.500  
G23  24022244.696                         339.079          32.250    24022241.646                         264.051          29.500                                                                  
G27  21262007.179   111732233.229        1229.154          47.750    21262013.032    87065010.618         957.859          42.250    21262062.537    87064808.454         957.761          14.000  
G32  23791692.623   125026204.159        6237.734          38.750    23791702.679    97423095.083        4861.162          29.000    23791703.185    97423086.155        4860.557          24.500  
R 3  20671241.853   110654874.466        2981.629          46.750    20671251.095    86064806.637        2319.241          43.250  
R 4  20776681.685   111258210.992        6885.891          47.750    20776689.600    86534197.319        5355.662          44.750  
R 9  22263998.991                         227.577          22.000    22264007.057    92468878.179         179.671          37.500  
R10  21523210.582                        2909.444          30.250                                                                  
R11  23411696.721   125104867.613        6528.786          37.250    23411684.501    97303892.818        5078.002          38.250  
R18  21613911.759   115376536.181         980.102          48.000    21613921.706    89737920.765         762.396          40.250  
R19  19537860.233   104514370.390        3268.606          42.250    19537869.108    81288992.139        2542.295          45.000  
R20  21609853.512                        6660.672          27.250    21609862.261                        5180.008          28.250  
> 2023  6  6 12 55 17.0000000  0 24                     
E 7  26289374.659   138151712.376        4167.911          43.000    26289384.812   105856464.943        3193.606          42.500  
E 8  28408062.494                        1859.391          22.500    28408063.359                        1423.245          28.500  
E12  25412971.008   133546069.755        5698.675          34.750    25412978.660   102327568.103        4366.742          34.000  
E24  25326055.595   133089335.641        4246.541          33.750    25326064.961   101977570.288        3253.940          35.250  
E26  25475142.125   133872789.369        1598.432          35.750    25475155.064   102577880.321        1224.773          43.750  
E31  25118657.922   131999415.309        1623.260          38.500    25118665.298   101142450.469        1243.849          30.500  
E33  23343745.570   122672204.331        3510.591          50.000    23343752.767    93995616.788        2690.012          47.500  
G 1  22322763.062   117306937.599        6707.241          30.750    22322771.835                        5226.286          21.500                                                                  
G 2  21529507.428   113138320.959        5191.224          47.500                                                                    21529509.055    88159757.116        4045.112          26.750  
G 8  20200911.672   106157172.827        3446.420          49.000    20200919.233    82719825.680        2685.457          44.500    20200918.178    82719379.671        2685.524          48.500  
G10  21533334.044   113159294.242        1974.170          50.750    21533339.830    88175983.587        1538.335          44.750    21533340.384    88175536.636        1538.327          47.500  
G14  24180288.405                        6434.072          32.000    24180311.492    99014292.056        5015.998          26.500                                                                  
G21  20901225.125   109836676.638        4825.156          47.000                                                                    20901228.769    85587043.284        3759.851          31.250  
G23  24022178.995                         338.892          32.250    24022177.416                         264.416          27.500                                                                  
G27  21261773.134   111731004.474        1228.869          47.250    21261779.144    87064053.135         957.486          42.750    21261828.747    87063850.962         957.767          13.000  
G32  23790505.559   125019966.730        6237.754          38.500    23790514.770    97418234.817        4859.692          32.500    23790516.260    97418225.826        4860.575          24.500  
R 3  20670684.850   110651893.424        2980.865          47.000    20670694.097    86062487.981        2318.744          45.000  
R 4  20775395.789   111251325.733        6885.027          47.000    20775403.861    86528842.097        5355.104          44.250  
R 9  22263954.199                         227.429          19.250    22263963.924    92468698.996         179.050          38.000  
R10  21522664.686                        2908.303          30.250                                                                  
R11  23410474.050                        6528.105          38.250                                                                  
R18  21613728.293   115375556.337         980.167          47.750    21613738.025    89737158.685         762.123          40.750  
R19  19537249.297   104511102.173        3268.261          42.000    19537258.249    81286450.211        2541.947          45.000  
R20  21608607.208                        6659.851          28.250    21608617.871                        5180.350          30.500  
> 2023  6  6 12 55 18.0000000  0 25                     
E 7  26288581.595   138147544.527        4167.425          42.250    26288591.935   105853271.428        3193.063          42.250  
E 8                                                                  28407710.199                        1423.499          24.250  
E12  25411886.809   133540370.865        5698.695          34.250    25411894.296   102323201.407        4366.570          34.500  
E24  25325247.734   133085089.082        4246.378          32.250    25325257.252   101974316.489        3253.656          34.750  
E26  25474838.466   133871190.803        1598.538          33.250    25474850.765   102576655.521        1224.554          44.250  
E31  25118349.125   131997792.256        1622.702          38.500    25118356.344   101141206.789        1243.296          31.250  
E33  23343077.662   122668693.857        3510.147          50.000    23343084.746    93992926.946        2689.569          47.000  
G 1  22321487.027   117300230.563        6706.404          30.250    22321495.679                        5226.627          26.000                                                                  
G 2  21528519.678   113133129.844        5190.715          47.000                                                                    21528521.184    88155712.079        4044.723          27.250  
G 8  20200255.976   106153726.604        3445.758          49.500    20200263.363    82717140.297        2684.958          43.750    20200262.356    82716694.306        2685.005          48.250  
G10  21532958.338   113157320.426        1973.243          51.250    21532963.865    88174445.559        1537.539          42.750    21532964.799    88173998.578        1537.609          48.250  
G14  24179063.547                        6435.164          36.250                                                                                                                                  
G21  20900306.993   109831851.352        4824.930          47.000                                                                    20900310.557    85583283.324        3759.688          31.500  
G23  24022112.126                         341.928          34.000    24022114.330                         264.052          29.750                                                                  
G27  21261539.246   111729775.809        1228.157          47.250    21261545.121    87063095.733         957.110          41.750    21261594.868    87062893.361         957.174          12.750  
G32  23789318.822   125013729.364        6236.875          39.000    23789328.686    97413374.509        4859.609          31.750    23789329.321    97413365.537        4859.904          24.500  
R 2  23785351.430                          19.578          33.500    23785357.478                          15.421          29.250  
R 3  20670128.267   110648912.929        2979.554          49.500    20670137.313    86060169.833        2317.429          45.250  
R 4  20774109.769   111244440.790        6884.406          47.000    20774117.988    86523487.143        5354.476          44.000  
R 9  22263909.169                         230.229          27.750    22263921.332    92468519.877         178.803          37.750  
R10  21522119.112                        2907.490          30.000                                                                  
R11  23409249.393                        6527.771          37.000    23409244.323                        5076.545          26.750  
R18  21613544.554                         979.626          47.500    21613553.956                         761.919          38.500  
R19  19536638.492   104507834.132        3267.519          41.250    19536647.305    81283908.393        2541.347          43.750  
R20  21607359.209                        6660.358          29.750    21607374.380                        5180.434          29.750  
> 2023  6  6 12 55 19.0000000  0 25                     
E 7  26287788.423   138143377.322        4167.316          42.750    26287799.157   105850078.365        3193.179          42.250  
E 8                                                                  28407357.469                        1422.680          27.750  
E12  25410802.293   133534672.230        5698.653          33.000    25410809.919   102318834.958        4366.541          34.500  
E24  25324439.797   133080843.156        4246.095          33.000    25324449.525   101971063.122        3253.502          36.000  
E26  25474535.013   133869592.683        1598.390          36.750    25474546.565   102575430.878        1224.837          43.000  
E31  25118040.382   131996169.718        1622.868          39.250    25118048.308   101139963.521        1243.104          31.500  
E33  23342409.811   122665183.768        3510.334          50.250    23342416.798    93990237.396        2689.740          47.750  
G 1  22320210.875   117293523.928        6707.167          30.500    22320219.098                        5225.243          26.250                                                                  
G 2  21527532.012   113127939.180        5190.930          48.000                                                                    21527533.389    88151667.400        4044.890          27.250  
G 8  20199600.257   106150281.064        3445.611          49.500    20199607.809    82714455.466        2684.882          44.500    20199606.665    82714009.465        2684.895          48.250  
G10  21532582.829   113155347.292        1973.280          51.250    21532588.280    88172908.048        1537.685          44.250    21532589.335    88172461.057        1537.632          48.500  
G14  24177838.918   127055401.446        6434.490          28.750                                                                                                                                  
G21  20899389.036   109827026.553        4825.025          48.250                                                                    20899392.465    85579523.735        3759.769          31.500  
G23  24022047.449   126236712.5051        338.955          31.750    24022050.019                         263.849          29.000                                                                  
G27  21261305.631   111728547.696        1228.360          47.750    21261311.385    87062138.786         957.154          42.500    21261361.051    87061936.293         957.245          14.000  
G32  23788132.259   125007492.524        6237.025          38.500    23788142.543    97408514.609        4860.050          32.750    23788142.530    97408505.668        4860.028          25.000  
R 2  23785345.098                          18.969          33.750    23785354.692                          14.798          29.500  
R 3  20669571.903   110645933.511        2979.399          48.000    20669580.667    86057852.523        2317.242          45.250  
R 4  20772824.124   111237556.663        6884.157          48.250    20772832.710    86518132.835        5354.275          44.500  
R 9  22263866.036                         229.552          26.000    22263878.037    92468341.180         178.770          38.000  
R10  21521574.402                        2906.338          30.250                                                                  
R11                                                                  23408025.149    97288661.320        5076.674          34.000  
R18  21613361.079                         979.688          48.250    21613370.100                         762.022          39.750  
R19  19536027.887   104504566.654        3267.606          42.250    19536036.150    81281367.013        2541.497          44.250  
R20  21606113.026                        6660.220          30.500    21606130.585                        5180.117          31.250  
> 2023  6  6 12 55 20.0000000  0 25                     
E 7  26286995.139   138139210.496        4165.931          42.750    26287006.378   105846885.627        3191.747          42.500  
E 8  28406995.766                        1857.538          23.750    28407005.508                        1422.443          28.250  
E12  25409717.469   133528973.662        5698.113          33.000    25409725.586   102314468.513        4366.078          34.250  
E24  25323631.963   133076597.669        4244.602          34.250    25323641.690   101967810.048        3252.463          36.000  
E26  25474230.983   133867994.445        1597.428          37.000    25474242.307   102574206.280        1224.174          43.250  
E31  25117731.599   131994547.436        1621.768          38.750    25117740.293   101138720.438        1242.129          30.750  
E33  23341741.912   122661673.803        3509.464          50.250    23341748.755    93987547.941        2689.094          47.750  
G 1  22318934.920   117286817.393        6706.038          30.750    22318943.702                        5225.674          27.750                                                                  
G 2  21526544.289   113122748.684        5189.869          47.500                                                                    21526545.603    88147622.851        4044.046          27.250  
G 8  20198944.637   106146835.979        3444.370          49.750    20198952.337    82711770.976        2683.966          44.750    20198951.062    82711324.981        2683.927          48.500  
G10  21532207.446   113153374.528        1972.065          51.500    21532212.945    88171370.827        1536.726          44.250    21532213.938    88170923.830        1536.680          49.000  
G14  24176614.999   127048967.017        6433.711          28.250                                                                                                                                  
G21  20898471.088   109822202.024        4823.813          47.750                                                                    20898474.383    85575764.360        3758.813          31.500  
G23  24021982.963   126236373.870         337.268          31.000    24021986.138                         263.622          30.000                                                                  
G27  21261072.096   111727319.900        1227.152          47.750    21261077.729    87061182.049         956.244          43.000    21261127.244    87060979.458         956.313          15.250  
G32  23786945.352   125001255.865        6236.402          38.250    23786955.855    97403654.894        4859.480          32.000    23786955.784    97403645.930        4859.549          25.500  
R 2                                                                  23785353.198                          14.534          29.500  
R 3  20669015.388   110642954.823        2977.947          48.000    20669024.080    86055535.782        2316.136          45.500  
R 4  20771538.563   111230673.113        6882.896          47.750    20771547.543    86512778.980        5353.193          45.000  
R 9  22263823.131                         229.697          26.500    22263835.190    92468162.763         177.889          38.000  
R10  21521029.785                        2905.743          31.500                                                                  
R11                                                                  23406803.175    97283585.156        5074.861          34.250  
R18  21613177.621                         978.870          48.250    21613186.107                         761.293          39.500  
R19  19535417.350   104501299.508        3266.510          42.250    19535425.049    81278825.892        2540.627          44.750  
R20  21604867.845                        6660.034          30.500    21604885.144                        5180.132          32.750  
> 2023  6  6 12 55 21.0000000  0 25                     
E 7  26286201.918   138135044.347        4165.890          42.500    26286213.863   105843693.355        3192.273          42.500  
E 8  28406642.423                        1855.690          25.500    28406651.811                        1421.713          26.000  
E12  25408633.248   133523275.461        5698.112          33.250    25408641.102   102310102.423        4365.900          33.250  
E24  25322824.879   133072352.804        4244.822          36.500    25322834.048   101964557.573        3252.240          36.000  
E26  25473927.328   133866396.426        1598.229          36.250    25473938.304   102572981.884        1224.431          42.750  
E31  25117422.569   131992925.740        1621.636          38.500    25117432.261   101137477.853        1242.129          33.000  
E33  23341074.084   122658164.268        3509.522          50.250    23341080.856    93984858.815        2689.161          47.250  
G 1  22317659.014   117280111.321        6706.437          31.750    22317666.378                        5225.006          25.750                                                                  
G 2  21525556.749   113117558.697        5190.005          47.250                                                                    21525557.867    88143578.708        4044.160          27.250  
G 8  20198289.280   106143391.602        3444.268          49.750    20198296.891    82709087.043        2683.776          44.500    20198295.607    82708641.045        2683.853          48.500  
G10  21531832.084   113151402.465        1971.980          52.000    21531837.781    88169834.167        1536.448          44.000    21531838.675    88169387.153        1536.620          49.500  
G14  24175391.330   127042533.542        6433.270          33.250                                                                                                                                  
G21  20897553.440   109817378.000        4823.963          47.500                                                                    20897556.386    85572005.374        3758.949          31.500  
G23  24021918.281   126236035.497         337.613          31.250    24021922.082                         263.413          30.000                                                                  
G27  21260838.552   111726092.688        1227.076          48.000    21260844.279    87060225.773         956.238          42.750    21260893.660    87060023.123         956.205          15.750  
G32  23785758.489   124995019.730        6236.036          39.000    23785770.236    97398795.574        4859.416          31.250    23785769.100    97398786.594        4859.263          25.750  
R 2                                                                  23785348.749                          14.113          29.000  
R 3  20668459.480   110639977.254        2977.283          50.000    20668467.761    86053219.863        2315.530          45.500  
R 4  20770253.365   111223790.449        6882.421          47.750    20770262.376    86507425.786        5353.020          45.000  
R 9  22263783.177                         228.865          26.000    22263792.477    92467984.778         177.783          38.000  
R10  21520484.676                        2904.621          30.250                                                                  
R11                                                                  23405584.390    97278509.531        5075.488          33.500  
R18  21612994.347   115371638.627         978.939          47.750    21613003.110    89734111.552         761.403          40.750  
R19  19534806.803   104498032.997        3266.468          42.250    19534814.342    81276285.275        2540.464          44.250  
R20  21603623.374                        6659.728          31.000    21603639.806                        5179.798          32.500  
> 2023  6  6 12 55 22.0000000  0 25                     
E 7  26285408.675   138130878.540        4165.705          41.750    26285421.242   105840501.397        3191.864          41.250  
E 8  28406290.310                        1855.266          25.250    28406298.034                        1421.824          26.500  
E12  25407549.250   133517577.278        5697.971          33.750    25407556.554   102305736.236        4366.162          32.250  
E24  25322017.671   133068108.355        4244.228          33.250    25322026.562   101961305.324        3252.283          36.000  
E26  25473624.005   133864798.514        1597.956          39.500    25473634.314   102571757.480        1224.408          43.000  
E31  25117113.710   131991304.258        1621.221          38.750    25117124.171   101136235.383        1242.179          32.750  
E33  23340406.350   122654654.841        3509.257          50.250    23340413.006    93982169.783        2688.969          47.250  
G 1  22316382.942   117273405.405        6705.751          29.250    22316389.766                        5224.705          23.500                                                                  
G 2  21524569.272   113112368.831        5189.654          47.500                                                                    21524570.188    88139534.655        4043.871          27.000  
G 8  20197634.009   106139947.636        3443.682          50.250    20197641.507    82706403.431        2683.408          44.250    20197640.228    82705957.434        2683.385          48.500  
G10  21531456.669   113149430.805        1971.397          51.750    21531462.679    88168297.797        1536.124          44.250    21531463.488    88167850.789        1536.158          49.750  
G14  24174168.587   127036100.059        6433.337          36.500    24174174.758    98989223.591        5013.079          29.250                                                                  
G21  20896635.724   109812554.174        4823.625          48.000                                                                    20896638.456    85568246.549        3758.659          31.500  
G23  24021852.732   126235697.378         337.612          32.000    24021856.912                         263.428          29.750                                                                  
G27  21260605.017   111724865.766        1226.715          47.750    21260610.825    87059269.738         955.868          42.500    21260660.227    87059067.051         955.925          15.250  
G32  23784571.613   124988783.826        6235.539          38.750    23784583.834    97393936.438        4858.974          31.000    23784582.475    97393927.454        4858.864          26.000  
R 2                                                                  23785343.911                          13.705          30.500  
R 3  20667903.501   110637000.479        2976.313          49.500    20667911.688    86050904.598        2314.936          45.500  
R 4  20768968.248   111216908.290        6881.832          47.500    20768977.201    86502073.001        5352.497          45.000  
R 9                                                                  22263749.988    92467807.043         177.619          38.000  
R10  21519940.332                        2903.816          32.250                                                                  
R11                                                                  23404361.732    97273434.417        5074.789          37.250  
R18  21612810.957   115370659.776         978.719          47.750    21612819.943    89733350.206         761.327          40.250  
R19  19534196.319   104494766.786        3265.938          42.250    19534203.701    81273744.883        2540.217          44.000  
R20  21602377.911                        6659.628          30.000    21602394.204                        5179.745          32.250  
> 2023  6  6 12 55 23.0000000  0 25                     
E 7  26284615.771   138126713.418        4165.189          42.000    26284628.781   105837309.935        3191.425          41.500  
E 8  28405937.771                        1856.861          22.000    28405944.418                        1421.675          25.500  
E12  25406465.034   133511879.386        5698.571          33.750    25406472.119   102301370.345        4366.193          32.250  
E24  25321210.333   133063864.565        4244.194          34.000    25321219.005   101958053.597        3251.936          37.250  
E26  25473320.033   133863200.835        1598.257          38.250    25473330.279   102570533.266        1224.367          43.250  
E31  25116805.038   131989683.288        1621.199          38.250    25116815.593   101134993.334        1242.461          29.000  
E33  23339738.625   122651145.795        3509.416          50.000    23339745.290    93979481.026        2689.051          47.250  
G 1  22315107.014   117266699.902        6705.498          30.500    22315114.723                        5224.872          25.250                                                                  
G 2  21523581.942   113107179.433        5189.823          48.000                                                                    21523582.630    88135490.977        4044.015          27.000  
G 8  20196978.804   106136504.377        3443.557          50.000    20196986.312    82703720.369        2683.213          44.250    20196984.984    82703274.372        2683.294          48.500  
G10  21531081.317   113147459.808        1971.208          51.500    21531087.764    88166761.936        1536.107          44.500    21531088.435    88166314.944        1536.002          50.000  
G14  24172945.728   127029667.237        6433.348          37.250    24172949.064    98984210.969        5013.291          29.250                                                                  
G21  20895718.156   109807730.860        4823.587          48.250                                                                    20895720.642    85564488.129        3758.620          31.500  
G23  24021787.312   126235359.529         337.636          31.000    24021793.089                         262.974          31.250                                                                  
G27  21260371.638   111723639.410        1226.675          47.750    21260377.679    87058314.135         955.840          42.750    21260426.737    87058111.398         955.890          15.750  
G32  23783384.259   124982548.411        6235.505          38.750    23783397.208    97389077.640        4859.244          31.750    23783395.934    97389068.697        4858.820          25.750  
R 2                                                                  23785339.028                          13.184          30.250  
R 3  20667347.817   110634024.832        2975.711          49.500    20667355.771    86048590.195        2314.506          45.500  
R 4  20767683.247   111210026.920        6881.658          47.750    20767692.253    86496720.835        5352.241          45.250  
R 9  22263702.276                         227.646          27.000    22263707.709    92467629.771         177.423          38.250  
R10  21519395.823                        2902.925          32.750                                                                  
R11                                                                  23403138.475                        5074.804          36.500  
R18  21612627.567   115369681.291         978.925          47.250    21612636.996    89732589.171         761.386          41.250  
R19  19533585.916   104491501.165        3265.993          42.250    19533593.280    81271204.959        2540.215          44.250  
R20  21601133.463                        6659.035          30.250    21601149.090                        5179.333          32.500  
> 2023  6  6 12 55 24.0000000  0 23                     
E 7  26283823.225   138122548.648        4164.477          42.500    26283836.230   105834118.743        3191.014          41.750  
E 8  28405585.850                        1856.044          22.500    28405590.798                        1421.357          26.500  
E12  25405380.482   133506181.594        5697.604          33.750    25405387.620   102297004.503        4365.643          32.250  
E24  25320401.349   133059621.301        4243.173          30.250    25320411.618   101954802.181        3251.339          37.500  
E26  25473015.569   133861603.133        1597.625          37.000    25473026.258   102569309.047        1224.206          43.000  
E31  25116496.465   131988062.640        1620.511          38.750    25116506.497   101133751.525        1241.969          29.750  
E33  23339070.891   122647636.877        3508.767          50.500    23339077.524    93976792.397        2688.501          47.000  
G 1  22313831.077   117259994.522        6705.449          32.000    22313838.973                        5225.000          23.000                                                                  
G 2  21522594.447   113101990.231        5189.055          47.750                                                                    21522595.099    88131447.439        4043.449          27.000  
G 8  20196323.761   106133061.584        3442.539          50.000    20196331.295    82701037.687        2682.514          44.500    20196329.824    82700591.677        2682.492          48.750  
G10  21530706.116   113145489.240        1970.324          51.500    21530712.895    88165226.429        1535.342          44.250    21530713.463    88164779.434        1535.325          50.000  
G14  24171721.751   127023234.483        6432.315          34.750    24171724.349                        5011.979          19.500                                                                  
G21  20894800.414   109802907.786        4822.956          48.750                                                                    20894802.877    85560729.902        3758.137          31.500  
G23  24021723.332   126235021.861         337.289          32.250    24021728.429                         263.095          32.250                                                                  
G27  21260138.305   111722413.341        1225.855          48.000    21260144.417    87057358.770         955.265          42.500    21260193.108    87057155.972         955.235          16.500  
G32  23782198.134   124976313.202        6235.042          39.250    23782211.151    97384219.066        4858.478          31.750    23782209.425    97384210.100        4858.464          26.000  
R 3  20666792.222   110631049.998        2974.406          49.500    20666799.922    86046276.460        2313.335          45.500  
R 4  20766398.420   111203146.063        6880.451          48.000    20766407.592    86491369.072        5351.496          45.000  
R 9  22263661.491                         227.458          28.500    22263665.054    92467452.722         176.801          38.250  
R10  21518851.532                        2902.155          29.250                                                                  
R18  21612444.087   115368702.989         978.180          47.750    21612454.093    89731828.239         760.797          41.250  
R19  19532976.018   104488235.888        3265.010          42.000    19532982.908    81268665.308        2539.500          43.750  
R20  21599887.495                        6659.203          30.250    21599903.743                        5179.375          33.500  
> 2023  6  6 12 55 25.0000000  0 23                     
E 7  26283030.822   138118384.237        4164.240          42.750    26283043.684   105830927.819        3190.672          42.500  
E 8  28405231.819                        1854.091          25.250    28405237.781                        1420.963          26.250  
E12  25404295.693   133500483.780        5697.714          33.500    25404302.903   102292638.570        4365.998          32.000  
E24  25319592.594   133055378.157        4242.919          30.750    25319604.056   101951550.953        3250.928          37.000  
E26  25472711.199   133860005.357        1597.752          37.500    25472722.076   102568084.779        1224.009          42.750  
E31  25116188.160   131986442.179        1620.178          38.250    25116197.673   101132509.849        1241.584          29.500  
E33  23338403.108   122644128.050        3508.651          50.500    23338409.786    93974103.796        2688.419          47.250  
G 1  22312554.858   117253289.232        6705.156          32.750    22312562.705                        5225.729          23.250                                                                  
G 2  21521606.822   113096801.144        5188.806          48.000                                                                    21521607.613    88127403.988        4043.224          27.500  
G 8  20195668.690   106129619.195        3442.037          49.750    20195676.247    82698355.300        2682.073          44.500    20195674.749    82697909.302        2682.112          48.750  
G10  21530331.059   113143519.002        1969.865          51.500    21530338.039    88163691.192        1535.017          44.500    21530338.548    88163244.181        1534.953          50.250  
G14  24170496.567   127016802.464        6431.500          29.000    24170502.219                        5011.251          22.750                                                                  
G21  20893882.810   109798084.901        4822.659          49.000                                                                    20893885.130    85556971.816        3757.904          31.500  
G23  24021659.741   126234684.258         337.388          34.750    24021664.154                         262.780          32.000                                                                  
G27  21259904.890   111721187.546        1225.535          48.250    21259911.226    87056403.591         954.960          43.000    21259959.520    87056200.808         954.949          16.250  
G32  23781011.880   124970078.191        6234.773          39.250    23781025.160    97379360.634        4857.654          30.750    23781022.969    97379351.655        4858.266          26.000  
R 3  20666236.578   110628075.916        2973.473          49.250    20666244.197    86043963.271        2312.685          45.500  
R 4  20765113.548   111196265.725        6879.811          47.000    20765122.881    86486017.701        5351.033          45.250  
R 9                                                                  22263622.985    92467275.897         176.698          38.750  
R10  21518306.401                        2901.312          30.500                                                                  
R18  21612260.845   115367724.760         978.020          48.000    21612271.427    89731067.420         760.739          42.000  
R19  19532365.888   104484970.884        3264.735          42.000    19532372.460    81266125.866        2539.175          44.250  
R20  21598642.922                        6659.307          30.500    21598658.589                        5179.416          33.750  
> 2023  6  6 12 55 26.0000000  0 24                     
E 7  26282238.665   138114220.027        4164.733          43.250    26282251.094   105827737.089        3190.928          42.750  
E 8  28404880.336                        1854.757          26.500    28404884.532                        1420.414          26.000  
E12  25403211.839   133494785.848        5698.634          34.250    25403218.508   102288272.655        4366.263          32.500  
E24  25318785.131   133051135.391        4243.287          31.000    25318796.325   101948299.989        3251.537          36.250  
E26  25472406.677   133858407.427        1598.534          36.000    25472417.840   102566860.415        1224.824          43.750  
E31  25115879.846   131984821.801        1620.641          38.000    25115889.547   101131268.216        1241.891          28.000  
E33  23337735.450   122640619.208        3509.403          50.750    23337742.025    93971415.211        2688.967          47.500  
G 1  22311279.717   117246583.983        6705.860          32.250    22311284.885                        5223.560          21.000                                                                  
G 2  21520619.322   113091612.104        5189.507          48.250                                                                    21520620.171    88123360.583        4043.771          27.500  
G 8  20195013.696   106126177.128        3442.476          49.250    20195021.168    82695673.168        2682.444          45.000    20195019.737    82695227.167        2682.451          48.750  
G10  21529956.171   113141549.028        1970.396          51.500    21529962.981    88162156.144        1535.324          44.250    21529963.697    88161709.138        1535.372          50.250  
G14  24169273.551   127010370.379        6432.832          30.250    24169278.680                        5011.967          25.500                                                                  
G21  20892964.956   109793262.103        4823.264          49.000                                                                    20892967.415    85553213.796        3758.384          31.500  
G23  24021595.403   126234346.567         338.358          32.250    24021599.919                         263.109          32.500                                                                  
G27  21259671.565   111719961.879        1226.167          47.250    21259678.138    87055448.536         955.359          43.250    21259725.936    87055245.744         955.460          17.500  
G32  23779825.679   124963843.299        6235.191          39.500    23779837.417    97374502.275        4858.675          29.000    23779836.505    97374493.294        4858.576          26.000  
R 3  20665681.216   110625102.477        2973.672          49.500    20665688.804    86041650.605        2312.840          46.000  
R 4  20763828.771   111189385.868        6880.071          46.750    20763838.005    86480666.686        5351.267          45.000  
R 9  22263580.841                         226.847          24.500    22263580.518    92467099.228         177.065          38.750  
R10  21517762.334                        2900.817          31.000                                                                  
R11                                                                  23399478.273                        5073.431          33.500  
R18  21612077.660                         978.750          47.500    21612088.131                         761.188          41.750  
R19  19531755.507   104481706.064        3265.233          41.750    19531761.990    81263586.564        2539.641          44.250  
